Nome Escola,Dependência,Código INEP,Localização,Internet,Matrículas,Energia Adequada,Conexão adequada,Classificação da cobertura,Situação,Prestadora PBLE (Programa de Conectividade nas Escolas),Tecnologia PBLE,Vel. (mbps),Fonte de Monitoramento,Nível de conexão,Latitude,Longitude
ESCOLA ESTADUAL PADRE JOSE DELGARDES,Estadual,15035735,Rural,Sim,685,Sim,Não,1. Acesso adequado - fibra,Velocidade inadequada,CLARO,Rede Celular,200.0,14172_CONECT_VELOCIDADE,Alguma internet e algum wifi para uso de gestores e professores,-1.5654042,-48.767437
ESCOLA ESTADUAL CONEGO BATISTA CAMPOS,Estadual,15035867,Urbana,Sim,1211,Sim,Não,1. Acesso adequado - fibra,Velocidade inadequada,OI,ADSL,200.0,14172_CONECT_VELOCIDADE,Alguma internet para uso de gestores,-1.50363,-48.621983
ESCOLA ESTADUAL EDUARDO ANGELIM,Estadual,15035891,Urbana,Sim,1210,Sim,Não,1. Acesso adequado - fibra,Velocidade inadequada,OI,ADSL,200.0,14172_CONECT_VELOCIDADE,Alguma internet e algum wifi para uso de gestores e professores,-1.5297565,-48.68943
ESCOLA ESTADUAL ACY DE JESUS BARROS PEREIRA - VILA SAO FRANCISCO,Estadual,15035921,Rural,Sim,712,Sim,Não,1. Acesso adequado - fibra,Velocidade inadequada,-,-,200.0,14172_CONECT_VELOCIDADE,Alguma internet e algum wifi para uso de gestores e professores,-1.5274754,-48.644028
ESCOLA ESTADUAL JOSE MARIA DE MORAES,Estadual,15035956,Urbana,Sim,207,Sim,Não,1. Acesso adequado - fibra,Velocidade inadequada,OI,ADSL,200.0,14172_CONECT_VELOCIDADE,Alguma internet e algum wifi para uso de gestores e professores,-1.5139084,-48.614407
ESCOLA ESTADUAL PROF JOSE MARIA MACHADO,Estadual,15035964,Urbana,Sim,773,Sim,Não,1. Acesso adequado - fibra,Velocidade inadequada,OI,ADSL,200.0,14172_CONECT_VELOCIDADE,Alguma internet e algum wifi para uso de gestores e professores,-1.5256135,-48.618622
E M E I F IDALIA DA SILVA GURGEL,Municipal,15036014,Rural,Sim,73,Sim,Sim,2. Acesso inadequado - menos de 20 km,Velocidade adequada,CLARO,SATÉLITE,100.0,EACE_CONECT_VEL_CONTRATADA,Alguma internet para uso de gestores,-1.4085131,-48.639076
E M E I F SANTO ANTONIO,Municipal,15036030,Rural,Sim,13,Sim,Sim,2. Acesso inadequado - menos de 20 km,Velocidade adequada,CLARO,Rede Celular,50.0,EACE_CONECT_VEL_CONTRATADA,Alguma internet e algum wifi para uso de gestores e professores,-1.5664825,-48.574337
E M E I F ARAQUISSAL,Municipal,15036057,Rural,Não,17,Não,Não,2. Acesso inadequado - menos de 20 km,Sem informação de internet,-,-,0.0,-,Escola sem nenhuma conexão ou sem energia adequada,-1.5106996,-48.574165
E M E I F CONEGO EUGENIO G PANTOJA,Municipal,15036065,Rural,Sim,44,Sim,Sim,2. Acesso inadequado - menos de 20 km,Velocidade adequada,CLARO,Rede Celular,20.0,GESAC_VEL,Velocidade adequada para uso de gestores. professores e ocasional uso com alunos em laboratórios de informática,-1.4923916,-48.65825
E M E I F LUCILIA NUNES DOS SANTOS,Municipal,15036090,Rural,Sim,25,Sim,Sim,2. Acesso inadequado - menos de 20 km,Velocidade adequada,CLARO,Rede Celular,50.0,EACE_CONECT_VEL_CONTRATADA,Velocidade adequada para uso de gestores. professores e ocasional uso com alunos em laboratórios de informática,-1.5717372,-48.57805
E M E I F NOSSA SENHORA DO PERPETUO SOCORRO,Municipal,15036103,Rural,Sim,90,Sim,Sim,2. Acesso inadequado - menos de 20 km,Velocidade adequada,CLARO,Rede Celular,400.0,EACE_CONECT_VEL_CONTRATADA,Velocidade adequada e algum wifi para uso de gestores. professores e ocasional uso com alunos em sala de aula,-1.645349,-48.600548
E M E I F PREF LAURIVAL CUNHA,Municipal,15036111,Rural,Sim,449,Não,Não,2. Acesso inadequado - menos de 20 km,Velocidade não monitorada,-,-,0.0,-,Escola sem nenhuma conexão ou sem energia adequada,-1.4401441,-48.537579
E M E I F PROF JOAO QUEIROZ MAGNO,Municipal,15036120,Rural,Sim,19,Sim,Não,1. Acesso adequado - fibra,Velocidade inadequada,CLARO,SATÉLITE,30.0,GESAC_VEL,Alguma internet e algum wifi para uso de gestores e professores,-1.6640671,-48.620613
E M E I F SANTA BERNADETH,Municipal,15036146,Rural,Sim,100,Sim,Sim,2. Acesso inadequado - menos de 20 km,Velocidade adequada,CLARO,Rede Celular,100.0,EACE_CONECT_VEL_CONTRATADA,Alguma internet para uso de gestores,-1.4441046,-48.69252
E M E F SANTA SOFIA,Municipal,15036154,Urbana,Sim,420,Sim,Não,1. Acesso adequado - fibra,Velocidade inadequada,OI,ADSL,283.02,VEL_MAX_6M,Alguma internet e algum wifi para uso de gestores e professores,-1.5093875,-48.628204
E M E I F SUCURIJU,Municipal,15036162,Rural,Sim,18,Sim,Sim,2. Acesso inadequado - menos de 20 km,Velocidade adequada,CLARO,Rede Celular,400.0,EACE_CONECT_VEL_CONTRATADA,Alguma internet para uso de gestores,-1.5542738,-48.60758
E M E I F ARATICU,Municipal,15036170,Rural,Sim,35,Sim,Não,2. Acesso inadequado - menos de 20 km,Velocidade não monitorada,CLARO,Rede Celular,0.0,0,Alguma internet para uso de gestores,-1.5561711,-48.617016
E M E I F BOM SOSSEGO,Municipal,15036219,Rural,Sim,105,Sim,Sim,2. Acesso inadequado - menos de 20 km,Velocidade adequada,CLARO,Rede Celular,50.0,EACE_CONECT_VEL_CONTRATADA,Velocidade adequada e algum wifi para uso de gestores. professores e ocasional uso com alunos em sala de aula,-1.6233902,-48.569828
E M E F CHECRALLA SALIM KHAYAT,Municipal,15036227,Urbana,Sim,1549,Sim,Não,1. Acesso adequado - fibra,Velocidade inadequada,OI,ADSL,200.0,PDDE_VEL_CONTRATADA,Alguma internet e algum wifi para uso de gestores e professores,-1.5162663,-48.620632
E M E I F DES JOAO BATISTA G CAMPOS,Municipal,15036235,Rural,Sim,102,Sim,Sim,1. Acesso adequado - fibra,Velocidade adequada,CLARO,SATÉLITE,200.0,PDDE_VEL_CONTRATADA,Velocidade adequada e algum wifi para uso de gestores. professores e ocasional uso com alunos em sala de aula,-1.6703683,-48.62596
E M E I F EDUARDO FRANCISCO AMBE,Municipal,15036243,Rural,Sim,17,Sim,Sim,2. Acesso inadequado - menos de 20 km,Velocidade adequada,CLARO,Rede Celular,50.0,EACE_CONECT_VEL_CONTRATADA,Velocidade adequada para uso de gestores. professores e ocasional uso com alunos em laboratórios de informática,-1.3866886,-48.64534
E M E I F FURO CONCEICAO,Municipal,15036251,Rural,Não,11,Não,Não,2. Acesso inadequado - menos de 20 km,Sem informação de internet,-,-,0.0,-,Escola sem nenhuma conexão ou sem energia adequada,-1.3636782,-48.54877
E M E I F ILHA MUCURA,Municipal,15036278,Rural,Não,22,Não,Não,2. Acesso inadequado - menos de 20 km,Sem informação de internet,-,-,0.0,-,Escola sem nenhuma conexão ou sem energia adequada,-1.3898689,-48.573917
E M E I F JANDIAQUARA,Municipal,15036286,Rural,Não,11,Não,Não,2. Acesso inadequado - menos de 20 km,Sem informação de internet,-,-,0.0,-,Escola sem nenhuma conexão ou sem energia adequada,-1.3415276,-48.597916
E M E I F JOAO PANTOJA DE CASTRO,Municipal,15036294,Rural,Não,15,Não,Não,2. Acesso inadequado - menos de 20 km,Sem informação de internet,-,-,0.0,-,Escola sem nenhuma conexão ou sem energia adequada,-1.4477232,-48.66558
E M E I F MARILDA NUNES,Municipal,15036308,Rural,Sim,91,Sim,Não,1. Acesso adequado - fibra,Velocidade inadequada,CLARO,SATÉLITE,20.0,GESAC_VEL,Alguma internet para uso de gestores,-1.4568352,-48.622387
E M E I F NAIR DIAS SERRAO,Municipal,15036316,Rural,Sim,31,Sim,Não,1. Acesso adequado - fibra,Velocidade não monitorada,CLARO,Rede Celular,0.53,VEL_MAX_6M,Alguma internet e algum wifi para uso de gestores e professores,-1.5317599,-48.66694
E M E F NORONHA DE BARROS,Municipal,15036324,Urbana,Sim,1269,Sim,Não,1. Acesso adequado - fibra,Velocidade inadequada,OI,ADSL,200.0,PDDE_VEL_CONTRATADA,Alguma internet e algum wifi para uso de gestores e professores,-1.5176508,-48.720703
E M E F MARIA ROSANGELA CARVALHO DA CONCEICAO,Municipal,15036340,Urbana,Sim,409,Sim,Não,1. Acesso adequado - fibra,Velocidade inadequada,OI,ADSL,100.0,PDDE_VEL_CONTRATADA,Alguma internet e algum wifi para uso de gestores e professores,-1.5153598,-48.62531
E M E I F JOAQUIM ALVES DA COSTA,Municipal,15036367,Rural,Sim,15,Sim,Não,2. Acesso inadequado - menos de 20 km,Velocidade não monitorada,CLARO,Rede Celular,0.0,0,Alguma internet para uso de gestores,-1.5236872,-48.58313
E M E I F SACAIA,Municipal,15036375,Rural,Sim,16,Sim,Não,2. Acesso inadequado - menos de 20 km,Velocidade não monitorada,-,-,0.0,-,Alguma internet para uso de gestores,-1.507111,-48.56867
E M E F SAO FRANCISCO XAVIER,Municipal,15036391,Urbana,Sim,769,Sim,Não,1. Acesso adequado - fibra,Velocidade inadequada,OI,ADSL,424.95,VEL_MAX_6M,Alguma internet e algum wifi para uso de gestores e professores,-1.5211935,-48.65171
E M E F PREF WANDICK GUTIERREZ,Municipal,15036430,Urbana,Sim,729,Sim,Não,1. Acesso adequado - fibra,Velocidade não monitorada,-,-,0.0,-,Alguma internet e algum wifi para uso de gestores e professores,-1.5687068,-48.764214
E M E I F LANDY,Municipal,15036464,Rural,Não,24,Não,Não,2. Acesso inadequado - menos de 20 km,Sem informação de internet,-,-,0.0,-,Escola sem nenhuma conexão ou sem energia adequada,-1.4063565,-48.57752
E M E I F FURO DAS LARANJEIRAS,Municipal,15036472,Rural,Não,21,Não,Não,2. Acesso inadequado - menos de 20 km,Sem informação de internet,-,-,0.0,-,Escola sem nenhuma conexão ou sem energia adequada,-1.502462,-48.53129
E M E I F PROF ADELIA DO SOCORRO PANTOJA DA CONCEICAO,Municipal,15036480,Rural,Sim,76,Sim,Sim,2. Acesso inadequado - menos de 20 km,Velocidade adequada,CLARO,Rede Celular,50.0,EACE_CONECT_VEL_CONTRATADA,Alguma internet e algum wifi para uso de gestores e professores,-1.5973703,-48.546738
E M E I F SAO MARCOS,Municipal,15036502,Rural,Não,52,Não,Não,2. Acesso inadequado - menos de 20 km,Sem informação de internet,-,-,0.0,-,Escola sem nenhuma conexão ou sem energia adequada,-1.3666908,-48.588158
E M E I F AICARAU,Municipal,15036529,Rural,Não,19,Sim,Não,2. Acesso inadequado - menos de 20 km,Sem informação de internet,-,-,0.0,-,Escola sem nenhuma conexão ou sem energia adequada,-1.5475415,-48.568817
E M E I F BOM JARDIM,Municipal,15036553,Rural,Sim,21,Sim,Não,2. Acesso inadequado - menos de 20 km,Velocidade não monitorada,CLARO,SATÉLITE,0.0,0,Alguma internet para uso de gestores,-1.6482757,-48.449036
E M E I F BOM JESUS,Municipal,15036561,Rural,Não,25,Não,Não,2. Acesso inadequado - menos de 20 km,Sem informação de internet,-,-,0.0,-,Escola sem nenhuma conexão ou sem energia adequada,-1.4962718,-48.56031
E M E I F ANTONIO CLARINDO MAGNO JUNIOR,Municipal,15036570,Rural,Sim,259,Sim,Sim,2. Acesso inadequado - menos de 20 km,Velocidade adequada,CLARO,Rede Celular,400.0,PDDE_VEL_CONTRATADA,Velocidade adequada e algum wifi para uso de gestores. professores e ocasional uso com alunos em sala de aula,-1.642755,-48.702717
E M E F CONEGO FRANCISCO DA SILVA CRAVO,Municipal,15036588,Urbana,Sim,941,Sim,Não,1. Acesso adequado - fibra,Velocidade inadequada,OI,ADSL,300.0,PDDE_VEL_CONTRATADA,Alguma internet e algum wifi para uso de gestores e professores,-1.5199417,-48.67157
E M E I F DOM PEDRO I,Municipal,15036596,Rural,Sim,156,Sim,Sim,2. Acesso inadequado - menos de 20 km,Velocidade adequada,-,-,400.0,EACE_CONECT_VEL_CONTRATADA,Velocidade adequada e algum wifi para uso de gestores. professores e ocasional uso com alunos em sala de aula,-1.6734585,-48.497334
E M E F ARAPARI,Municipal,15036600,Rural,Sim,580,Sim,Não,1. Acesso adequado - fibra,Velocidade não monitorada,CLARO,SATÉLITE,0.0,0,Alguma internet e algum wifi para uso de gestores e professores,-1.560791,-48.50616
E M E F MARIA CECILIA VASCONCELOS RIBEIRO,Municipal,15036626,Urbana,Sim,1308,Sim,Não,1. Acesso adequado - fibra,Velocidade inadequada,OI,ADSL,400.0,PDDE_VEL_CONTRATADA,Alguma internet e algum wifi para uso de gestores e professores,-1.5086296,-48.62063
E M E F CARLOS DE JESUS MARTINS,Municipal,15036650,Rural,Não,37,Não,Não,2. Acesso inadequado - menos de 20 km,Sem informação de internet,-,-,0.0,-,Escola sem nenhuma conexão ou sem energia adequada,-1.4079125,-48.598007
E M E F JARBAS PASSARINHO,Municipal,15036669,Urbana,Sim,393,Sim,Não,1. Acesso adequado - fibra,Velocidade inadequada,OI,ADSL,100.0,PDDE_VEL_CONTRATADA,Alguma internet e algum wifi para uso de gestores e professores,-1.5118546,-48.62081
E M E I F JOSE PINHEIRO RODRIGUES,Municipal,15036677,Rural,Sim,40,Sim,Sim,2. Acesso inadequado - menos de 20 km,Velocidade adequada,CLARO,Rede Celular,100.0,PDDE_VEL_CONTRATADA,Velocidade adequada e algum wifi para uso de gestores. professores e ocasional uso com alunos em sala de aula,-1.6086572,-48.627247
E M E I F MANOEL NASCIMENTO DO AMARAL,Municipal,15036685,Rural,Sim,24,Sim,Não,2. Acesso inadequado - menos de 20 km,Velocidade não monitorada,CLARO,Rede Celular,0.0,0,Alguma internet para uso de gestores,-1.5803653,-48.52523
E M E I F MONTANHA,Municipal,15036693,Rural,Sim,67,Sim,Não,1. Acesso adequado - fibra,Velocidade não monitorada,CLARO,Rede Celular,0.0,0,Alguma internet e algum wifi para uso de gestores e professores,-1.5794797,-48.763336
E M E I F MONTE SANTO,Municipal,15036707,Rural,Sim,15,Sim,Sim,2. Acesso inadequado - menos de 20 km,Velocidade adequada,CLARO,Rede Celular,50.0,EACE_CONECT_VEL_CONTRATADA,Alguma internet para uso de gestores,-1.6169577,-48.59406
E M E I F NOSSA SENHORA DO LIVRAMENTO,Municipal,15036715,Rural,Sim,14,Sim,Sim,2. Acesso inadequado - menos de 20 km,Velocidade adequada,-,-,50.0,EACE_CONECT_VEL_CONTRATADA,Alguma internet para uso de gestores,-1.6278985,-48.72862
E M E I F NOSSA SENHORA DA CONCEICAO,Municipal,15036723,Rural,Não,30,Não,Não,2. Acesso inadequado - menos de 20 km,Sem informação de internet,-,-,0.0,-,Escola sem nenhuma conexão ou sem energia adequada,-1.4676195,-48.57062
E M E I F NOSSA SENHORA DA PIEDADE,Municipal,15036731,Rural,Sim,101,Sim,Sim,2. Acesso inadequado - menos de 20 km,Velocidade adequada,CLARO,Rede Celular,0.0,0,Alguma internet e algum wifi para uso de gestores e professores,-1.6304969,-48.488136
E M E I F PROF MARIA NAURA GOUVEA DO NASCIMENTO,Municipal,15036740,Rural,Não,79,Não,Não,2. Acesso inadequado - menos de 20 km,Sem informação de internet,-,-,0.0,-,Escola sem nenhuma conexão ou sem energia adequada,-1.4406573,-48.56728
E M E F PROF ALOYSIO DA COSTA CHAVES,Municipal,15036766,Urbana,Sim,318,Sim,Não,1. Acesso adequado - fibra,Velocidade inadequada,OI,ADSL,100.0,PDDE_VEL_CONTRATADA,Alguma internet e algum wifi para uso de gestores e professores,-1.5100065,-48.613262
E M E I F RAMAL SANTA MARIA,Municipal,15036774,Rural,Sim,113,Sim,Sim,2. Acesso inadequado - menos de 20 km,Velocidade adequada,CLARO,Rede Celular,400.0,EACE_CONECT_VEL_CONTRATADA,Alguma internet para uso de gestores,-1.5678654,-48.59854
E M E I F SAO JOSE,Municipal,15036804,Rural,Não,61,Não,Não,2. Acesso inadequado - menos de 20 km,Sem informação de internet,-,-,0.0,-,Escola sem nenhuma conexão ou sem energia adequada,-1.4576055,-48.54788
E M E I F SAO JOSE,Municipal,15036804,Rural,Não,61,Não,Não,2. Acesso inadequado - menos de 20 km,Sem informação de internet,-,-,0.0,-,Escola sem nenhuma conexão ou sem energia adequada,-1.4705096,-48.6714
E M E I F SAO RAIMUNDO NONATO,Municipal,15036812,Rural,Não,48,Não,Não,2. Acesso inadequado - menos de 20 km,Sem informação de internet,-,-,0.0,-,Escola sem nenhuma conexão ou sem energia adequada,-1.3778542,-48.574757
E M E I F RAIMUNDA BARBOSA FURTADO CARAVELAS,Municipal,15036839,Rural,Sim,112,Sim,Sim,2. Acesso inadequado - menos de 20 km,Velocidade adequada,CLARO,Rede Celular,381.18,VEL_MAX_6M,Velocidade adequada para uso de gestores. professores e ocasional uso com alunos em laboratórios de informática,-1.5655141,-48.68004
E M E I F PROF MARIA DAS GRACAS SOUZA NASCIMENTO,Municipal,15036855,Rural,Sim,46,Sim,Sim,2. Acesso inadequado - menos de 20 km,Velocidade adequada,CLARO,Rede Celular,100.0,PDDE_VEL_CONTRATADA,Velocidade adequada e algum wifi para uso de gestores. professores e ocasional uso com alunos em sala de aula,-1.6172158,-48.62973
E M E I F ARIENGA,Municipal,15036863,Rural,Sim,16,Sim,Sim,2. Acesso inadequado - menos de 20 km,Velocidade adequada,CLARO,SATÉLITE,50.0,EACE_CONECT_VEL_CONTRATADA,Escola conectada com parâmetros adequados para uso pedagógico em sala de aula,-1.6918342,-48.658733
E M E I F MADRE DE DEUS,Municipal,15036901,Rural,Não,43,Não,Não,2. Acesso inadequado - menos de 20 km,Sem informação de internet,-,-,0.0,-,Escola sem nenhuma conexão ou sem energia adequada,-1.4171125,-48.54854
E M E I NORMA GUILHON,Municipal,15036928,Rural,Sim,75,Sim,Sim,2. Acesso inadequado - menos de 20 km,Velocidade adequada,-,-,50.0,EACE_CONECT_VEL_CONTRATADA,Escola sem nenhuma conexão ou sem energia adequada,-1.4766474,-48.637894
E M E F NOSSA SENHORA APARECIDA,Municipal,15036936,Urbana,Sim,356,Sim,Não,1. Acesso adequado - fibra,Velocidade inadequada,OI,ADSL,100.97,VEL_MAX_6M,Alguma internet e algum wifi para uso de gestores e professores,-1.5089374,-48.60941
E M E F NSRA DA CONCEICAO,Municipal,15036944,Urbana,Sim,281,Sim,Sim,1. Acesso adequado - fibra,Velocidade adequada,OI,ADSL,284.17,VEL_MAX_6M,Escola conectada com parâmetros adequados para uso pedagógico em sala de aula,-1.4985591,-48.618988
E M E I F NOVA SANTAREM,Municipal,15036952,Rural,Sim,80,Sim,Sim,2. Acesso inadequado - menos de 20 km,Velocidade adequada,CLARO,Rede Celular,50.0,EACE_CONECT_VEL_CONTRATADA,Escola conectada com parâmetros adequados para uso pedagógico em sala de aula,-1.5841428,-48.682755
E M E I CRIANCA FELIZ,Municipal,15036960,Rural,Sim,30,Sim,Sim,2. Acesso inadequado - menos de 20 km,Velocidade adequada,-,-,400.0,EACE_CONECT_VEL_CONTRATADA,Escola sem nenhuma conexão ou sem energia adequada,-1.590106,-48.578445
E M E I TIA ZITA,Municipal,15036979,Rural,Sim,64,Sim,Sim,2. Acesso inadequado - menos de 20 km,Velocidade adequada,CLARO,Rede Celular,50.0,EACE_CONECT_VEL_CONTRATADA,Alguma internet para uso de gestores,-1.5813255,-48.60947
E M E I F SANTA JOANA,Municipal,15036987,Rural,Sim,40,Sim,Sim,2. Acesso inadequado - menos de 20 km,Velocidade adequada,CLARO,SATÉLITE,20.0,GESAC_VEL,Velocidade adequada para uso de gestores. professores e ocasional uso com alunos em laboratórios de informática,-1.6603945,-48.464317
E M E I BEM ME QUER,Municipal,15036995,Urbana,Sim,297,Sim,Sim,1. Acesso adequado - fibra,Velocidade adequada,-,-,200.0,PDDE_VEL_CONTRATADA,Escola conectada com parâmetros adequados para uso pedagógico em sala de aula,-1.5043845,-48.62129
E M E I CHAPEUZINHO VERMELHO,Municipal,15037002,Urbana,Sim,147,Sim,Sim,1. Acesso adequado - fibra,Velocidade adequada,-,-,300.0,PDDE_VEL_CONTRATADA,Escola conectada com parâmetros adequados para uso pedagógico em sala de aula,-1.516295,-48.724537
E M E I CRIANCAS UNIDAS,Municipal,15037010,Urbana,Sim,93,Sim,Sim,1. Acesso adequado - fibra,Velocidade adequada,-,-,105.97,VEL_MAX_6M,Escola conectada com parâmetros adequados para uso pedagógico em sala de aula,-1.5221806,-48.649902
E M E I NARIZINHO,Municipal,15037029,Urbana,Sim,331,Sim,Sim,1. Acesso adequado - fibra,Velocidade adequada,-,-,200.0,PDDE_VEL_CONTRATADA,Escola conectada com parâmetros adequados para uso pedagógico em sala de aula,-1.5202245,-48.67195
E M E I PICA PAU AMARELO,Municipal,15037037,Urbana,Sim,373,Sim,Sim,1. Acesso adequado - fibra,Velocidade adequada,-,-,100.0,PDDE_VEL_CONTRATADA,Escola conectada com parâmetros adequados para uso pedagógico em sala de aula,-1.5707575,-48.76757
E M E I RECANTO DAS CRIANCAS,Municipal,15037045,Urbana,Sim,295,Sim,Sim,1. Acesso adequado - fibra,Velocidade adequada,-,-,200.0,PDDE_VEL_CONTRATADA,Escola conectada com parâmetros adequados para uso pedagógico em sala de aula,-1.514504,-48.61813
ESCOLA ESTADUAL PRESIDENTE DUTRA,Estadual,15037070,Rural,Sim,643,Sim,Não,1. Acesso adequado - fibra,Velocidade não monitorada,-,-,200.0,14172_CONECT_VELOCIDADE,Alguma internet para uso de gestores,-1.5182822,-48.72336
E M E I F PROF DULCECLEIA FURTADO BARBOSA,Municipal,15142302,Urbana,Não,681,Sim,Não,1. Acesso adequado - fibra,Sem informação de internet,-,-,0.0,-,Alguma internet para uso de gestores,-1.5269952229697528,-48.62428314621191
E M E I F MASSARAPO,Municipal,15143074,Rural,Sim,19,Sim,Sim,2. Acesso inadequado - menos de 20 km,Velocidade adequada,CLARO,Rede Celular,20.0,GESAC_VEL,Velocidade adequada para uso de gestores. professores e ocasional uso com alunos em laboratórios de informática,-1.5636216,-48.655296
E M E I F SAO JOSE,Municipal,15143082,Rural,Sim,24,Sim,Não,2. Acesso inadequado - menos de 20 km,Velocidade não monitorada,CLARO,Rede Celular,0.0,0,Alguma internet para uso de gestores,-1.4576055,-48.54788
E M E I F SAO JOSE,Municipal,15143082,Rural,Sim,24,Sim,Não,2. Acesso inadequado - menos de 20 km,Velocidade não monitorada,CLARO,Rede Celular,0.0,0,Alguma internet para uso de gestores,-1.4705096,-48.6714
E M E I F SAO GREGORIO,Municipal,15143147,Rural,Sim,25,Sim,Sim,2. Acesso inadequado - menos de 20 km,Velocidade adequada,CLARO,Rede Celular,20.0,GESAC_VEL,Velocidade adequada e algum wifi para uso de gestores. professores e ocasional uso com alunos em sala de aula,-1.5644704,-48.55161
E M E I F FLECHEIRA,Municipal,15143155,Rural,Não,36,Não,Não,2. Acesso inadequado - menos de 20 km,Sem informação de internet,-,-,0.0,-,Escola sem nenhuma conexão ou sem energia adequada,-1.3282778,-48.557117
E M E I F SAO SEBASTIAO,Municipal,15143198,Rural,Sim,27,Sim,Sim,2. Acesso inadequado - menos de 20 km,Velocidade adequada,-,-,50.0,EACE_CONECT_VEL_CONTRATADA,Alguma internet e algum wifi para uso de gestores e professores,-1.5900981,-48.575607
E M E F AGRICOLA DE BARCARENA,Municipal,15143210,Rural,Sim,53,Sim,Sim,2. Acesso inadequado - menos de 20 km,Velocidade adequada,CLARO,Rede Celular,100.0,EACE_CONECT_VEL_CONTRATADA,Velocidade adequada e algum wifi para uso de gestores. professores e ocasional uso com alunos em sala de aula,-1.5711015,-48.57141
E M E I F SAO FRANCISCO,Municipal,15143252,Rural,Não,13,Não,Não,2. Acesso inadequado - menos de 20 km,Sem informação de internet,-,-,0.0,-,Escola sem nenhuma conexão ou sem energia adequada,-1.3809592,-48.595108
CENTRO MUL DE ATENDIMENTO EDUCACIONAL ESPECIALIZADO SANTA JOANA,Municipal,15143538,Urbana,Sim,29,Sim,Não,1. Acesso adequado - fibra,Velocidade inadequada,OI,ADSL,2.0,PBLE_VEL,Alguma internet para uso de gestores,-1.5077388,-48.617245
E M E I F PROF FRANCISCO DO SOCORRO MAGNO NUNES,Municipal,15157407,Rural,Sim,170,Sim,Não,1. Acesso adequado - fibra,Velocidade não monitorada,CLARO,Rede Celular,0.0,0,Alguma internet para uso de gestores,-1.5332822,-48.703327
E M E I OS TRES PASTORZINHOS,Municipal,15157938,Urbana,Sim,174,Sim,Sim,1. Acesso adequado - fibra,Velocidade adequada,-,-,200.0,PDDE_VEL_CONTRATADA,Escola conectada com parâmetros adequados para uso pedagógico em sala de aula,-1.5128369,-48.60504
CRECHE MUNICIPAL PROFESSORA MARIA SIQUEIRA DOS SANTOS DIAS - TIA BENTA,Municipal,15169766,Urbana,Não,328,Sim,Não,1. Acesso adequado - fibra,Sem informação de internet,-,-,0.0,-,Escola sem nenhuma conexão ou sem energia adequada,-1.521638,-48.704685
E M E I F VEREADOR GENARO APOLLARO,Municipal,15171280,Urbana,Sim,789,Sim,Não,1. Acesso adequado - fibra,Velocidade inadequada,-,-,430.49,VEL_MAX_6M,Alguma internet e algum wifi para uso de gestores e professores,-1.5019641,-48.69516
E M E I F PROF ANA DUTRA DE SOUZA VALE,Municipal,15172082,Urbana,Sim,329,Sim,Sim,1. Acesso adequado - fibra,Velocidade adequada,-,-,400.0,PDDE_VEL_CONTRATADA,Escola conectada com parâmetros adequados para uso pedagógico em sala de aula,-1.5192901,-48.614902
CRECHE MUNICIPAL MARIA LUCIA OGAWA RODRIGUES - TIA LUCIA,Municipal,15172554,Urbana,Sim,442,Sim,Sim,1. Acesso adequado - fibra,Velocidade adequada,-,-,100.0,PDDE_VEL_CONTRATADA,Escola conectada com parâmetros adequados para uso pedagógico em sala de aula,-1.5196817,-48.615242
E M E F PROF RAIMUNDA DA COSTA MORAES - PROF RAMITA,Municipal,15173720,Urbana,Sim,1066,Sim,Não,1. Acesso adequado - fibra,Velocidade não monitorada,-,-,0.0,-,Escola sem nenhuma conexão ou sem energia adequada,-1.5204222,-48.7002
CRECHE MUNICIPAL MARIA JANEIDE LIMA RODRIGUES - TIA JANEIDE,Municipal,15173747,Urbana,Não,182,Sim,Não,1. Acesso adequado - fibra,Sem informação de internet,-,-,0.0,-,Escola sem nenhuma conexão ou sem energia adequada,-1.5134366,-48.71378
CRECHE MUNICIPAL HOZANA TRINDADE FURTADO - TIO HOZANA,Municipal,15174379,Urbana,Sim,146,Sim,Sim,4. Acesso inadequado - localização imprecisa,Velocidade adequada,-,-,95.02,VEL_MAX_6M,Velocidade adequada para uso de gestores. professores e ocasional uso com alunos em laboratórios de informática,-1.6033983,-48.735336
CRECHE MUNICIPAL MARIA ROSALINA MARTINS DA CUNHA - TIA ROSALINA,Municipal,15174387,Urbana,Não,337,Sim,Não,4. Acesso inadequado - localização imprecisa,Sem informação de internet,-,-,0.0,-,Escola sem nenhuma conexão ou sem energia adequada,-1.53444,-48.67982
CRECHE MUNICIPAL PROFª CARLOTA MACHADO DA CONCEICAO - TIA CARLOTA,Municipal,15174395,Urbana,Sim,222,Sim,Sim,1. Acesso adequado - fibra,Velocidade adequada,-,-,250.0,PDDE_VEL_CONTRATADA,Escola conectada com parâmetros adequados para uso pedagógico em sala de aula,-1.5027598,-48.697594
E M E F MANOEL DE OLIVEIRA CARDOSO,Municipal,15176550,Rural,Não,337,Sim,Não,2. Acesso inadequado - menos de 20 km,Sem informação de internet,-,-,0.0,-,Escola sem nenhuma conexão ou sem energia adequada,-1.5876429,-48.595703
CRECHE MUNICIPAL PROFESSORA CARIDADE RIBEIRO DA SILVA - TIA CARIDADE,Municipal,15179265,Urbana,Não,316,Sim,Não,1. Acesso adequado - fibra,Sem informação de internet,-,-,0.0,-,Alguma internet para uso de gestores,-1.51466,-48.61864
ESCOLA TECNOLOGICA PROF MARIA SIQUEIRA DOS SANTOS DIAS,Estadual,15179524,Urbana,Sim,799,Sim,Não,1. Acesso adequado - fibra,Velocidade não monitorada,-,-,0.0,-,Alguma internet e algum wifi para uso de gestores e professores,-1.5284290,-48.6174560
E M E F ZITA CONTENTE MAGNO CUNHA,Municipal,15515753,Urbana,Sim,447,Sim,Sim,1. Acesso adequado - fibra,Velocidade adequada,OI,ADSL,300.0,PDDE_VEL_CONTRATADA,Velocidade adequada e algum wifi para uso de gestores. professores e ocasional uso com alunos em sala de aula,-1.5195669,-48.67226
E M E I GOTINHA DE LUZ,Municipal,15515788,Urbana,Sim,409,Sim,Sim,1. Acesso adequado - fibra,Velocidade adequada,-,-,200.0,PDDE_VEL_CONTRATADA,Escola conectada com parâmetros adequados para uso pedagógico em sala de aula,-1.532256,-48.68879
E M E I F JUPARIQUARA,Municipal,15535240,Rural,Não,9,Não,Não,2. Acesso inadequado - menos de 20 km,Sem informação de internet,-,-,0.0,-,Escola sem nenhuma conexão ou sem energia adequada,-1.3912413,-48.596283
E M E F PROF FRANCISCO CONCEICAO DO NASCIMENTO,Municipal,15555623,Urbana,Sim,330,Sim,Sim,1. Acesso adequado - fibra,Velocidade adequada,OI,ADSL,315.74,VEL_MAX_6M,Velocidade adequada e algum wifi para uso de gestores. professores e ocasional uso com alunos em sala de aula,-1.5685766,-48.758053
E M E I F NOSSA SENHORA DE FATIMA,Municipal,15555682,Urbana,Sim,548,Sim,Não,1. Acesso adequado - fibra,Velocidade inadequada,-,-,200.0,PDDE_VEL_CONTRATADA,Alguma internet e algum wifi para uso de gestores e professores,-1.5266145,-48.68252
E M E F PREF LAURIVAL CAMPOS CUNHA,Municipal,15576337,Rural,Sim,534,Sim,Sim,2. Acesso inadequado - menos de 20 km,Velocidade adequada,CLARO,SATÉLITE,200.0,PDDE_VEL_CONTRATADA,Escola conectada com parâmetros adequados para uso pedagógico em sala de aula,-1.475327,-48.644047
COLEGIO ESTADUAL PALMIRA GABRIEL,Estadual,15576370,Urbana,Sim,755,Sim,Não,1. Acesso adequado - fibra,Velocidade inadequada,OI,ADSL,200.0,14172_CONECT_VELOCIDADE,Alguma internet para uso de gestores,-1.5128787,-48.621273
E M E F JOSE HUMBERTO SOUZA DO NASCIMENTO,Municipal,15577457,Urbana,Sim,1698,Sim,Não,1. Acesso adequado - fibra,Velocidade inadequada,OI,ADSL,300.0,PDDE_VEL_CONTRATADA,Alguma internet e algum wifi para uso de gestores e professores,-1.5173862,-48.68763
E M E I CAFEZAL,Municipal,15578429,Rural,Sim,102,Sim,Sim,2. Acesso inadequado - menos de 20 km,Velocidade adequada,CLARO,Rede Celular,100.36,VEL_MAX_6M,Escola conectada com parâmetros adequados para uso pedagógico em sala de aula,-1.4988204,-48.593487
E M E I F NOVA VIDA,Municipal,15578437,Rural,Sim,18,Sim,Sim,2. Acesso inadequado - menos de 20 km,Velocidade adequada,CLARO,Rede Celular,400.0,EACE_CONECT_VEL_CONTRATADA,Alguma internet para uso de gestores,-1.5392883,-48.65425
E M E F VER MARCOS MARTINS MAGNO,Municipal,15583945,Urbana,Sim,1129,Sim,Não,1. Acesso adequado - fibra,Velocidade inadequada,OI,ADSL,300.0,PDDE_VEL_CONTRATADA,Alguma internet e algum wifi para uso de gestores e professores,-1.5448435,-48.677812
EEEF MARIA AMELIA DA SILVA COSTA,Estadual,15035743,Rural,-,-,-,Não,-,-,-,-,-,-,-,-1.5770542,-48.6091039
EEEIF NOSSA SENHORA DE NAZARE,Estadual,15035751,Urbana,-,-,-,Não,-,-,-,-,-,-,-,-1.5091795,-48.6174083
E M E I F SAO LUIZ,Municipal,15036499,Rural,-,-,-,Não,-,-,-,-,-,-,-,-1.51891,-48.617
E M E I F SANTA CECILIA,Municipal,15036820,Rural,-,-,-,Não,-,-,-,-,-,-,-,-1.5304,-48.5132
E M E I F LIMEIRA,Municipal,15143112,Rural,-,-,-,Não,-,-,-,-,-,-,-,-1.64583,-48.6375
EEEF SANTA HELENA,Estadual,15159515,Rural,-,-,-,Não,-,-,-,-,-,-,-,-1.5036,-48.6253
ANEXO RURAL ACY DE JESUS BARROS PEREIRA,Estadual,15178579,Rural,-,-,-,Não,-,-,-,-,-,-,-,-1.4939,-48.5471